[{"id":"21228","latitude":"50.53656893147226","longitude":"14.12914752960205","youtube":"IDLTTUxm0Js","nazev":"LITOM\u011a\u0158ICE: Vina\u0159sk\u00e9 Litom\u011b\u0159ice 2013 ","timestamp":1365976800,"datum":"15.04.2013","kategorie_id":"1","kategorie":"zpravodajstv\u00ed"},{"id":"21129","latitude":"50.7725563","longitude":"14.2127612","youtube":"VxEEebVdEXU","nazev":"D\u011a\u010c\u00cdN: Rozpo\u010det 2012 skon\u010dil s p\u0159ebytkem","timestamp":1365717600,"datum":"12.04.2013","kategorie_id":"1","kategorie":"zpravodajstv\u00ed"},{"id":"21131","latitude":"50.7725563","longitude":"14.2127612","youtube":"rgHZwHnR-VI","nazev":"D\u011a\u010c\u00cdN: D\u011b\u010d\u00edn hostil festival Febiofest","timestamp":1365717600,"datum":"12.04.2013","kategorie_id":"1","kategorie":"zpravodajstv\u00ed"},{"id":"21130","latitude":"50.7725563","longitude":"14.2127612","youtube":"fywUil9AWqI","nazev":"D\u011a\u010c\u00cdN: P\u0159ipravovan\u00e1 rekonstrukce ulice V Kolonii ","timestamp":1365717600,"datum":"12.04.2013","kategorie_id":"4","kategorie":"doprava"},{"id":"21138","latitude":"50.545668375624224","longitude":"14.12841796875","youtube":"gZzorrBvHH4","nazev":"LITOM\u011a\u0158ICE: Sout\u011b\u017e ve skoku do v\u00fd\u0161ky - Litom\u011b\u0159ick\u00e1 la\u0165ka ","timestamp":1365717600,"datum":"12.04.2013","kategorie_id":"2","kategorie":"sport"},{"id":"21139","latitude":"50.534380406110806","longitude":"14.1339111328125","youtube":"2jYDb_ektVg","nazev":"\u010cR: Cyklist\u00e9 a brusla\u0159i, nezapome\u0148te na p\u0159ilbu ","timestamp":1365717600,"datum":"12.04.2013","kategorie_id":"1","kategorie":"zpravodajstv\u00ed"},{"id":"21141","latitude":"50.7725563","longitude":"14.2127612","youtube":"22MfahlA8_k","nazev":"D\u011a\u010c\u00cdN: M\u011bsto m\u00e1 z\u00e1jem zprovoznit Koz\u00ed dr\u00e1hu ","timestamp":1365717600,"datum":"12.04.2013","kategorie_id":"1","kategorie":"zpravodajstv\u00ed"},{"id":"21110","latitude":"50.640636049205824","longitude":"14.04052734375","youtube":"8v6CCiMpRqw","nazev":"\u00daST\u00cd NAD LABEM: Architektonick\u00fd workshop d\u00e1 novou podobu l\u00e1zn\u00edm ","timestamp":1365631200,"datum":"11.04.2013","kategorie_id":"3","kategorie":"kultura"},{"id":"21112","latitude":"50.510420919862796","longitude":"14.150733947753906","youtube":"amxcRidGd8M","nazev":"V Terez\u00edn\u011b vzpom\u00ednali ob\u011bti \u0160oa - holocaustu ","timestamp":1365631200,"datum":"11.04.2013","kategorie_id":"1","kategorie":"zpravodajstv\u00ed"},{"id":"21111","latitude":"50.53670531314977","longitude":"14.129319190979004","youtube":"vXQdqiZVQqU","nazev":"LITOM\u011a\u0158ICE: V Dom\u011b kultury vystoupil Tom\u00e1\u0161 Ko\u010dko s orchestrem ","timestamp":1365631200,"datum":"11.04.2013","kategorie_id":"3","kategorie":"kultura"},{"id":"21084","latitude":"50.53519510547759","longitude":"14.1339111328125","youtube":"HWwH3v1LJzE","nazev":"LITOM\u011a\u0158ICE: Poh\u00e1dky Sv\u00e1\u0165ova dividla budou i v m\u011bstsk\u00e9m divadle ","timestamp":1365544800,"datum":"10.04.2013","kategorie_id":"3","kategorie":"kultura"},{"id":"21085","latitude":"50.531703498586324","longitude":"14.12841796875","youtube":"qVcZrlfohSk","nazev":"LITOM\u011a\u0158ICE: \u017d\u00e1kovsk\u00fd turnaj v \u0161ermu ","timestamp":1365544800,"datum":"10.04.2013","kategorie_id":"2","kategorie":"sport"},{"id":"21087","latitude":"50.538686453943555","longitude":"14.1339111328125","youtube":"Jj0I2AbxV38","nazev":"LITOM\u011a\u0158ICE: Z\u00e1vod rodin s d\u011btsk\u00fdmi ko\u010d\u00e1rky ","timestamp":1365544800,"datum":"10.04.2013","kategorie_id":"2","kategorie":"sport"},{"id":"21086","latitude":"50.51013709015302","longitude":"14.04052734375","youtube":"4z-cVDIy6RI","nazev":"LOVOSICE: Akce Okra\u0161lovac\u00edho krou\u017eku Lovosicka ","timestamp":1365544800,"datum":"10.04.2013","kategorie_id":"3","kategorie":"kultura"},{"id":"21018","latitude":"50.542177543990384","longitude":"14.1229248046875","youtube":"OOdZY8XbDX4","nazev":"LITOM\u011a\u0158ICE: Ivo Vodi\u010dka vystavuje v OKA-M\u017dIKU ","timestamp":1365458400,"datum":"09.04.2013","kategorie_id":"3","kategorie":"kultura"},{"id":"21019","latitude":"50.53519510547759","longitude":"14.12841796875","youtube":"79hlj1x1VJA","nazev":"LITOM\u011a\u0158ICE: Smrteln\u00e1 vra\u017eda v Divadle K. H. M\u00e1chy ","timestamp":1365458400,"datum":"09.04.2013","kategorie_id":"3","kategorie":"kultura"},{"id":"21021","latitude":"50.640636049205824","longitude":"14.051513671875","youtube":"0M331SNcZqs","nazev":"\u00daST\u00cd NAD LABEM: SAFETYSHOW PRO BEZPE\u010c\u00cd MLAD\u00ddCH \u0158IDI\u010c\u016e ","timestamp":1365458400,"datum":"09.04.2013","kategorie_id":"1","kategorie":"zpravodajstv\u00ed"},{"id":"21007","latitude":"50.51537679743589","longitude":"14.041900634765625","youtube":"xAeTvLOHvEw","nazev":"LOVOSICE: M\u011bsto otev\u0159elo nov\u00fd stacion\u00e1\u0159 pro ment\u00e1ln\u011b posti\u017een\u00e9","timestamp":1365372000,"datum":"08.04.2013","kategorie_id":"1","kategorie":"zpravodajstv\u00ed"},{"id":"21010","latitude":"50.538686453943555","longitude":"14.12841796875","youtube":"kcdfQHWtqlQ","nazev":"LITOM\u011a\u0158ICE: Senio\u0159i se zaj\u00edmaj\u00ed o po\u010d\u00edta\u010de i d\u011bn\u00ed ve m\u011bst\u011b ","timestamp":1365372000,"datum":"08.04.2013","kategorie_id":"1","kategorie":"zpravodajstv\u00ed"},{"id":"21008","latitude":"50.53519510547759","longitude":"14.1339111328125","youtube":"aDuL2N95YSA","nazev":"LITOM\u011a\u0158ICE: Policist\u00e9 u\u010dili d\u011bti p\u0159ech\u00e1zet na p\u0159echodu ","timestamp":1365372000,"datum":"08.04.2013","kategorie_id":"1","kategorie":"zpravodajstv\u00ed"},{"id":"20899","latitude":"50.65723858293982","longitude":"14.0460205078125","youtube":"Ide8o0vsBNQ","nazev":"\u00daST\u00cd NAD LABEM: Zah\u00e1jen\u00ed letn\u00ed sez\u00f3ny v ZOO ","timestamp":1365112800,"datum":"05.04.2013","kategorie_id":"1","kategorie":"zpravodajstv\u00ed"},{"id":"20900","latitude":"50.66153340585759","longitude":"14.051513671875","youtube":"w8IUJuQ6HBg","nazev":"\u00daST\u00cd NAD LABEM: M\u011bstsk\u00e9 slu\u017eby bavily n\u00e1v\u0161t\u011bvn\u00edky v l\u00e1zn\u00edch, baz\u00e9nu i na led\u011b ","timestamp":1365112800,"datum":"05.04.2013","kategorie_id":"2","kategorie":"sport"},{"id":"20903","latitude":"50.534380406110806","longitude":"14.12841796875","youtube":"LXb3hNC3K7w","nazev":"LITOM\u011a\u0158ICE: Centrum Srd\u00ed\u010dko l\u00e9\u010d\u00ed d\u011bti canisterapi\u00ed ","timestamp":1365112800,"datum":"05.04.2013","kategorie_id":"1","kategorie":"zpravodajstv\u00ed"},{"id":"20901","latitude":"50.538686453943555","longitude":"14.1229248046875","youtube":"mHXZNFjHQ7s","nazev":"LITOM\u011a\u0158ICE: Mlad\u00e9 basketbalistky budou bojovat o republikov\u00e9 prvenstv\u00ed ","timestamp":1365112800,"datum":"05.04.2013","kategorie_id":"2","kategorie":"sport"},{"id":"20902","latitude":"50.51188372386366","longitude":"14.04052734375","youtube":"l18v0aEVi9U","nazev":"LITOM\u011a\u0158ICE: Florbalov\u00fd t\u00fdm ASK oslavil 10 let existence ","timestamp":1365112800,"datum":"05.04.2013","kategorie_id":"2","kategorie":"sport"},{"id":"20858","latitude":"50.531703498586324","longitude":"14.12841796875","youtube":"SUFDJRX_VXs","nazev":"LITOM\u011a\u0158ICE: Seznamte se s Fair Trade formou nov\u00e9 hry  ","timestamp":1365026400,"datum":"04.04.2013","kategorie_id":"1","kategorie":"zpravodajstv\u00ed"},{"id":"20857","latitude":"50.53519510547759","longitude":"14.12841796875","youtube":"6gQWm3WlPNY","nazev":"\u0160vindl - Ona je zamilovan\u00e1 do filmov\u00fd hv\u011bzdy (videoklip) ","timestamp":1365026400,"datum":"04.04.2013","kategorie_id":"3","kategorie":"kultura"},{"id":"20860","latitude":"50.66153340585759","longitude":"14.051513671875","youtube":"UQWoSyLuCs0","nazev":"\u00daST\u00cd NAD LABEM: Hejtman podepsal d\u016fle\u017eit\u00e9 dokumenty o spolupr\u00e1ci ","timestamp":1365026400,"datum":"04.04.2013","kategorie_id":"1","kategorie":"zpravodajstv\u00ed"},{"id":"20859","latitude":"50.53519510547759","longitude":"14.12841796875","youtube":"tUszODKGM7w","nazev":"LITOM\u011a\u0158ICE: Preventivn\u00ed akce Policie \u010cR zam\u011b\u0159en\u00e1 na kaps\u00e1\u0159e ","timestamp":1365026400,"datum":"04.04.2013","kategorie_id":"1","kategorie":"zpravodajstv\u00ed"},{"id":"20861","latitude":"50.53807547596233","longitude":"14.13116455078125","youtube":"UC-Z-039TzA","nazev":"LITOM\u011a\u0158ICE\/ LOVOSICE: Den u\u010ditel\u016f ","timestamp":1365026400,"datum":"04.04.2013","kategorie_id":"9","kategorie":"vzd\u011bl\u00e1n\u00ed"},{"id":"20797","latitude":"50.528211633263616","longitude":"14.1229248046875","youtube":"fC6JQMOT1Yo","nazev":"LITOM\u011a\u0158ICE: Konkurenti v boji o dial\u00fdzu se mo\u017en\u00e1 budou soudit ","timestamp":1364940000,"datum":"03.04.2013","kategorie_id":"1","kategorie":"zpravodajstv\u00ed"},{"id":"20799","latitude":"50.66153340585759","longitude":"14.051513671875","youtube":"Yl21YKbpJZE","nazev":"\u00daST\u00cd NAD LABEM: Sout\u011b\u017e Zlat\u00fd erb o nejlep\u0161\u00ed webov\u00e9 str\u00e1nky ","timestamp":1364940000,"datum":"03.04.2013","kategorie_id":"1","kategorie":"zpravodajstv\u00ed"},{"id":"20800","latitude":"50.534380406110806","longitude":"14.12841796875","youtube":"faEsGPk8Zfw","nazev":"LITOM\u011a\u0158ICE: Den otev\u0159en\u00fdch dve\u0159\u00ed \u0161koly Ekonom ","timestamp":1364940000,"datum":"03.04.2013","kategorie_id":"9","kategorie":"vzd\u011bl\u00e1n\u00ed"},{"id":"20770","latitude":"50.58546737874345","longitude":"14.346084594726562","youtube":"FQWDxkKAR6w","nazev":"LITOM\u011a\u0158ICKO: Velikono\u010dn\u00ed z\u00e1bavu ovl\u00e1dl \u00da\u0161t\u011bk ","timestamp":1364853600,"datum":"02.04.2013","kategorie_id":"3","kategorie":"kultura"},{"id":"20771","latitude":"50.538686453943555","longitude":"14.1339111328125","youtube":"jVTtOKk8cd8","nazev":"LITOM\u011a\u0158ICE: Projekt pro \u017eeny, kter\u00e9 cht\u011bj\u00ed podnikat ","timestamp":1364853600,"datum":"02.04.2013","kategorie_id":"1","kategorie":"zpravodajstv\u00ed"},{"id":"20572","latitude":"50.53622479323099","longitude":"14.129555225372314","youtube":"o20mb4ahaKk","nazev":"LITOM\u011a\u0158ICE: Jaroslaven\u00ed na Hrad\u011b ","timestamp":1364425200,"datum":"28.03.2013","kategorie_id":"3","kategorie":"kultura"},{"id":"20573","latitude":"50.53462908666629","longitude":"14.128632545471191","youtube":"NkmR6bMKm9A","nazev":"LITOM\u011a\u0158ICE: Den otev\u0159en\u00fdch dve\u0159\u00ed Spr\u00e1vy CHKO \u010cesk\u00e9 st\u0159edoho\u0159\u00ed ","timestamp":1364425200,"datum":"28.03.2013","kategorie_id":"1","kategorie":"zpravodajstv\u00ed"},{"id":"20574","latitude":"50.51450355327373","longitude":"14.077606201171875","youtube":"_TKIyQUdVRI","nazev":"LOVOSICE: Den otev\u0159en\u00fdch dve\u0159\u00ed na zdymadle ","timestamp":1364425200,"datum":"28.03.2013","kategorie_id":"1","kategorie":"zpravodajstv\u00ed"},{"id":"20538","latitude":"50.654568653173214","longitude":"14.029541015625","youtube":"O_lnYrDQD8c","nazev":"\u00daST\u00cd NAD LABEM: Kraj korekci z hospoda\u0159en\u00ed ROPu hradit nehodl\u00e1 ","timestamp":1364338800,"datum":"27.03.2013","kategorie_id":"1","kategorie":"zpravodajstv\u00ed"},{"id":"20539","latitude":"50.51074842996259","longitude":"13.6285400390625","youtube":"eu1nFw4WSPY","nazev":"PRAHA\/ MOST: \u017divot s dial\u00fdzou je zm\u011bna, nikoliv konec ","timestamp":1364338800,"datum":"27.03.2013","kategorie_id":"1","kategorie":"zpravodajstv\u00ed"},{"id":"20534","latitude":"50.66153340585759","longitude":"14.051513671875","youtube":"PIlw9rBnJ3E","nazev":"V\u0160EBO\u0158ICE: Charitativn\u00ed v\u00fdstava 1. REPUBLIKA ","timestamp":1364252400,"datum":"26.03.2013","kategorie_id":"3","kategorie":"kultura"},{"id":"20536","latitude":"50.65027319333545","longitude":"14.051513671875","youtube":"0jrUVkLxG8Y","nazev":"\u00daST\u00cd NAD LABEM: UJEP otev\u0159ela nov\u00e9 Informa\u010dn\u00ed a vzd\u011bl\u00e1vac\u00ed centrum ","timestamp":1364252400,"datum":"26.03.2013","kategorie_id":"9","kategorie":"vzd\u011bl\u00e1n\u00ed"},{"id":"20535","latitude":"50.64760286763938","longitude":"14.051513671875","youtube":"lBwXB-mSVDM","nazev":"\u00daST\u00cd NAD LABEM: Skupina Diamond Cats vystoupila v plaveck\u00e9m baz\u00e9nu ","timestamp":1364252400,"datum":"26.03.2013","kategorie_id":"3","kategorie":"kultura"},{"id":"20376","latitude":"50.65723858293982","longitude":"14.051513671875","youtube":"vAkQUh3847M","nazev":"\u00daST\u00cd NAD LABEM: Pam\u00e1tky se pro ve\u0159ejnost otev\u0159ou na Velikonoce ","timestamp":1363820400,"datum":"21.03.2013","kategorie_id":"3","kategorie":"kultura"},{"id":"20377","latitude":"50.53451838533472","longitude":"14.131003618240356","youtube":"n3wb-S4LScQ","nazev":"LITOM\u011a\u0158ICE: P\u0159edn\u00e1\u0161ka o celiakii v knihovn\u011b ","timestamp":1363820400,"datum":"21.03.2013","kategorie_id":"1","kategorie":"zpravodajstv\u00ed"},{"id":"20321","latitude":"50.66849712574271","longitude":"14.04052734375","youtube":"JNt6nBi7m8I","nazev":"\u00daST\u00cd NAD LABEM: Velikono\u010dn\u00ed trhy na M\u00edrov\u00e9m n\u00e1m\u011bst\u00ed ","timestamp":1363734000,"datum":"20.03.2013","kategorie_id":"1","kategorie":"zpravodajstv\u00ed"},{"id":"20322","latitude":"50.53519510547759","longitude":"14.12841796875","youtube":"Z9p8HayVYH4","nazev":"LITOM\u011a\u0158ICE: Velikono\u010dn\u00ed jarmark v Oka-M\u017eiku ","timestamp":1363734000,"datum":"20.03.2013","kategorie_id":"3","kategorie":"kultura"},{"id":"20323","latitude":"50.48428481374856","longitude":"14.028511047363281","youtube":"hbqSc7Gkm4A","nazev":"\u010c\u00cd\u017dKOVICE: Dal\u0161\u00ed kaly se po roce 2018 v cement\u00e1rn\u011b spalovat nebudou ","timestamp":1363734000,"datum":"20.03.2013","kategorie_id":"1","kategorie":"zpravodajstv\u00ed"},{"id":"20300","latitude":"50.33535180959618","longitude":"13.54888916015625","youtube":"wLhya-WYhR8","nazev":"\u017dATEC: Chr\u00e1m chmele a piva zah\u00e1jil novou sez\u00f3nu ","timestamp":1363647600,"datum":"19.03.2013","kategorie_id":"3","kategorie":"kultura"},{"id":"20301","latitude":"50.53963015072379","longitude":"13.938131332397461","youtube":"n724kvMKL7U","nazev":"MILE\u0160OV: Nejstar\u0161\u00ed obyvatelka \u00dasteck\u00e9ho kraje oslavila 105 let ","timestamp":1363647600,"datum":"19.03.2013","kategorie_id":"1","kategorie":"zpravodajstv\u00ed"},{"id":"20189","latitude":"50.64760286763938","longitude":"14.051513671875","youtube":"xrhvODHeilU","nazev":"\u00daST\u00cd NAD LABEM: Do pr\u016fmyslov\u00e9 z\u00f3ny Triangle p\u0159ich\u00e1z\u00ed nov\u00fd investor ","timestamp":1363302000,"datum":"15.03.2013","kategorie_id":"1","kategorie":"zpravodajstv\u00ed"},{"id":"20190","latitude":"50.542177543990384","longitude":"14.1229248046875","youtube":"aTQq6uMEDws","nazev":"LITOM\u011a\u0158ICE: Karneval se Sv\u00e1\u0165ou na Z\u0160 Lingua Universal ","timestamp":1363302000,"datum":"15.03.2013","kategorie_id":"3","kategorie":"kultura"},{"id":"20192","latitude":"50.369167749394315","longitude":"13.792648315429688","youtube":"QxX0VzohiJA","nazev":"DOBROM\u011a\u0158ICE: Odborn\u00fd semin\u00e1\u0159 o pastevectv\u00ed ","timestamp":1363302000,"datum":"15.03.2013","kategorie_id":"1","kategorie":"zpravodajstv\u00ed"},{"id":"20191","latitude":"50.53408671604536","longitude":"14.132108688354492","youtube":"rSvXp33kwlg","nazev":"LITOM\u011a\u0158ICE: X. ro\u010dn\u00edk Loutkov\u00e9ho festivalu ","timestamp":1363302000,"datum":"15.03.2013","kategorie_id":"3","kategorie":"kultura"},{"id":"20193","latitude":"50.54915894885125","longitude":"14.1229248046875","youtube":"r_44ZWNra4s","nazev":"LITOM\u011a\u0158ICE: Odznak v\u0161estrannosti olympijsk\u00fdch v\u00edt\u011bz\u016f ","timestamp":1363302000,"datum":"15.03.2013","kategorie_id":"2","kategorie":"sport"},{"id":"20120","latitude":"50.65723858293982","longitude":"14.0460205078125","youtube":"fCyPaS3HXQQ","nazev":"\u00daSTECKO: WOHNOUT a Lety mimo t\u00e1hnou \u0161\u0148\u016fru po severu \u010cech ","timestamp":1363129200,"datum":"13.03.2013","kategorie_id":"3","kategorie":"kultura"},{"id":"20121","latitude":"50.538686453943555","longitude":"14.1339111328125","youtube":"SrBASBykFmY","nazev":"LITOM\u011a\u0158ICE: Pedagogick\u00e1 \u0161kola vystavuje v Oka-M\u017eiku ","timestamp":1363129200,"datum":"13.03.2013","kategorie_id":"3","kategorie":"kultura"},{"id":"20091","latitude":"50.536270140471736","longitude":"14.129641056060791","youtube":"DIDqs6yZHiQ ","nazev":"LITOM\u011a\u0158ICE: D\u011btsk\u00fd karneval Sv\u00e1\u0165ova dividla k MD\u017d ","timestamp":1363042800,"datum":"12.03.2013","kategorie_id":"3","kategorie":"kultura"},{"id":"20093","latitude":"50.50998425396378","longitude":"14.053573608398438","youtube":"i5IOmZludjs","nazev":"Pozv\u00e1nka na 3. Reprezenta\u010dn\u00ed ples m\u011bsta Lovosice ","timestamp":1363042800,"datum":"12.03.2013","kategorie_id":"3","kategorie":"kultura"},{"id":"20092","latitude":"50.56695138728323","longitude":"14.057779312133789","youtube":"AfmpfJbS7eg","nazev":"Nab\u00eddka ps\u016f z \u00datulku (\u0158epnice)","timestamp":1363042800,"datum":"12.03.2013","kategorie_id":"1","kategorie":"zpravodajstv\u00ed"},{"id":"20088","latitude":"50.53674668206966","longitude":"14.129265546798706","youtube":"kWA2TPsmv7w","nazev":"LITOM\u011a\u0158ICE: P\u011bveck\u00e1 sout\u011b\u017e Little Star 2013 ","timestamp":1362956400,"datum":"11.03.2013","kategorie_id":"3","kategorie":"kultura"},{"id":"20078","latitude":"50.7725563","longitude":"14.2127612","youtube":"K9RFwxce9vg","nazev":"D\u011a\u010c\u00cdN: Sout\u011b\u017e D\u00edvka roku 2013 ","timestamp":1362956400,"datum":"11.03.2013","kategorie_id":"1","kategorie":"zpravodajstv\u00ed"},{"id":"20089","latitude":"50.652575137245876","longitude":"14.053916931152344","youtube":"7b7LedQaC6I","nazev":"\u00daST\u00cd NAD LABEM: Ve m\u011bst\u011b byla otev\u0159ena nov\u00e1 lezeck\u00e1 st\u011bna ","timestamp":1362956400,"datum":"11.03.2013","kategorie_id":"2","kategorie":"sport"},{"id":"20090","latitude":"50.531703498586324","longitude":"14.1339111328125","youtube":"dS26_7XdvQ0","nazev":"LITOM\u011a\u0158ICE: Obyvatel\u00e9 Fair Trade m\u011bsta spravedliv\u00fd obchod podporuj\u00ed ","timestamp":1362956400,"datum":"11.03.2013","kategorie_id":"1","kategorie":"zpravodajstv\u00ed"},{"id":"19974","latitude":"50.536686901563066","longitude":"14.129329919815063","youtube":"0WrRoiUj_SY","nazev":"LITOM\u011a\u0158ICE: K\u0159est knihy fotografi\u00ed o zapomenut\u00fdch m\u00edstech a lidech ","timestamp":1362697200,"datum":"08.03.2013","kategorie_id":"3","kategorie":"kultura"},{"id":"19975","latitude":"50.664464072375985","longitude":"14.050140380859375","youtube":"khGBNc5Omhs","nazev":"\u00daSTECK\u00dd KRAJ: Stavba D8 op\u011bt v ohro\u017een\u00ed. D\u011bti Zem\u011b pod\u00e1vaj\u00ed st\u00ed\u017enost. ","timestamp":1362697200,"datum":"08.03.2013","kategorie_id":"1","kategorie":"zpravodajstv\u00ed"},{"id":"19976","latitude":"50.65235746284448","longitude":"14.051427841186523","youtube":"fzvy3xOfvTc","nazev":"\u00daST\u00cd NAD LABEM: 30 let Z\u0160 St\u0159\u00edbrn\u00edky ","timestamp":1362697200,"datum":"08.03.2013","kategorie_id":"9","kategorie":"vzd\u011bl\u00e1n\u00ed"},{"id":"19977","latitude":"50.53318335719016","longitude":"14.123332500457764","youtube":"fzvy3xOfvTc","nazev":"LITOM\u011a\u0158ICE: Karneval na led\u011b Z\u0160 Masarykova ","timestamp":1362697200,"datum":"08.03.2013","kategorie_id":"9","kategorie":"vzd\u011bl\u00e1n\u00ed"},{"id":"19960","latitude":"50.7725563","longitude":"14.2127612","youtube":"28_ST7UUMZA","nazev":"D\u011a\u010c\u00cdN: Nab\u00eddka \u00fatulku na m\u011bs\u00edc \u00fanor 02\/2013","timestamp":1362610800,"datum":"07.03.2013","kategorie_id":"1","kategorie":"zpravodajstv\u00ed"},{"id":"19959","latitude":"50.7725563","longitude":"14.2127612","youtube":"6qrmcqxfQFQ","nazev":"D\u011a\u010c\u00cdN: Zastupitelstvo m\u011bsta D\u011b\u010d\u00edn schv\u00e1lilo dotace sportu na rok 2013","timestamp":1362610800,"datum":"07.03.2013","kategorie_id":"1","kategorie":"zpravodajstv\u00ed"},{"id":"19970","latitude":"50.53617467245813","longitude":"14.129523038864136","youtube":"v2qDCAw3iY8","nazev":"LITOM\u011a\u0158ICE: Odpoledne pro \u017eeny na Hrad\u011b s hudbou a m\u00f3dou ","timestamp":1362610800,"datum":"07.03.2013","kategorie_id":"3","kategorie":"kultura"},{"id":"19971","latitude":"50.51194921870571","longitude":"14.153823852539062","youtube":"p4TMO0mxjog","nazev":"TEREZ\u00cdN: M\u011bsto opravuje vojensk\u00e9 historick\u00e9 objekty ","timestamp":1362610800,"datum":"07.03.2013","kategorie_id":"1","kategorie":"zpravodajstv\u00ed"},{"id":"19910","latitude":"50.539013741295264","longitude":"14.126014709472656","youtube":"xXt98v-0scY","nazev":"LITOM\u011a\u0158ICE: Thelmu a Luisu p\u0159ivezli do divadla herci z Brna ","timestamp":1362524400,"datum":"06.03.2013","kategorie_id":"3","kategorie":"kultura"},{"id":"19911","latitude":"50.53920648351642","longitude":"14.130134582519531","youtube":"NtiLQ2zzL9s","nazev":"LITOM\u011a\u0158ICE: Oslava masopustu popravila zimu ","timestamp":1362524400,"datum":"06.03.2013","kategorie_id":"3","kategorie":"kultura"},{"id":"19883","latitude":"50.535060524153906","longitude":"14.12790298461914","youtube":"STw90QedriY","nazev":"LITOM\u011a\u0158ICKO: P\u00e1tr\u00e1n\u00ed policie po poh\u0159e\u0161ovan\u00e9 \u017een\u011b ","timestamp":1362438000,"datum":"05.03.2013","kategorie_id":"1","kategorie":"zpravodajstv\u00ed"},{"id":"19838","latitude":"50.49780692772487","longitude":"13.4417724609375","youtube":"dMlTxVZPspM","nazev":"JIRKOV: V b\u00fdval\u00e9m kulturn\u00edm dom\u011b vznikla velk\u00e1 lezeck\u00e1 st\u011bna ","timestamp":1362351600,"datum":"04.03.2013","kategorie_id":"2","kategorie":"sport"},{"id":"19840","latitude":"50.534250382623114","longitude":"14.1318941116333","youtube":"VPoLXeLlcXs","nazev":"LITOM\u011a\u0158ICE: V\u00fdstava obraz\u016f Petra Soukupa z cest po Severn\u00ed Americe ","timestamp":1362351600,"datum":"04.03.2013","kategorie_id":"3","kategorie":"kultura"},{"id":"19839","latitude":"50.50998425396378","longitude":"14.061813354492188","youtube":"1mlvRdQh_E0","nazev":"LOVOSICE: Prevence kriminality p\u00e1chan\u00e9 na seniorech ","timestamp":1362351600,"datum":"04.03.2013","kategorie_id":"1","kategorie":"zpravodajstv\u00ed"},{"id":"19715","latitude":"50.65743082833923","longitude":"14.049625396728516","youtube":"yRzz5kUJC3s","nazev":"\u00daST\u00cd NAD LABEM: Miliardov\u00e9 onkocentrum m\u00e1 provozovat nov\u00e1 firma ","timestamp":1362006000,"datum":"28.02.2013","kategorie_id":"1","kategorie":"zpravodajstv\u00ed"},{"id":"19716","latitude":"50.58598690566242","longitude":"14.347457885742188","youtube":"nLHrRHXmATo","nazev":"\u00da\u0160T\u011aK: Projekt Prvn\u00ed krok posiluje postaven\u00ed \u017een na trhu pr\u00e1ce ","timestamp":1362006000,"datum":"28.02.2013","kategorie_id":"1","kategorie":"zpravodajstv\u00ed"},{"id":"19636","latitude":"50.53745222308801","longitude":"14.13388967514038","youtube":"vyPe229PNaM","nazev":"LITOM\u011a\u0158ICE: V galerii Nikol vystavuje Zden\u011bk Z\u00e1me\u010dn\u00edk ","timestamp":1361746800,"datum":"25.02.2013","kategorie_id":"3","kategorie":"kultura"}]